{
  "data": [
    {
      "latitude": 41.36259,
      "longitude": 48.51519,
      "type": "locality",
      "name": "Quba",
      "number": null,
      "postal_code": null,
      "street": null,
      "confidence": 1,
      "region": "Quba",
      "region_code": "QB",
      "county": null,
      "locality": "Quba",
      "administrative_area": null,
      "neighbourhood": null,
      "country": "Azerbaijan",
      "country_code": "AZE",
      "continent": "Asia",
      "label": "Quba, Azerbaijan"
    },
    {
      "latitude": 36.0757,
      "longitude": 104.445,
      "type": "locality",
      "name": "Guba",
      "number": null,
      "postal_code": null,
      "street": null,
      "confidence": 1,
      "region": "Gansu",
      "region_code": "GS",
      "county": "Lanzhou",
      "locality": "Guba",
      "administrative_area": null,
      "neighbourhood": null,
      "country": "China",
      "country_code": "CHN",
      "continent": "Asia",
      "label": "Guba, GS, China"
    },
    {
      "latitude": 31.4933,
      "longitude": 87.5355,
      "type": "locality",
      "name": "Quba",
      "number": null,
      "postal_code": null,
      "street": null,
      "confidence": 1,
      "region": "Tibet",
      "region_code": "XZ",
      "county": "Naqu",
      "locality": "Quba",
      "administrative_area": null,
      "neighbourhood": null,
      "country": "China",
      "country_code": "CHN",
      "continent": "Asia",
      "label": "Quba, XZ, China"
    },
    {
      "latitude": 29.1479,
      "longitude": 103.733,
      "type": "locality",
      "name": "Guba",
      "number": null,
      "postal_code": null,
      "street": null,
      "confidence": 1,
      "region": "Sichuan",
      "region_code": "SC",
      "county": "Leshan",
      "locality": "Guba",
      "administrative_area": null,
      "neighbourhood": null,
      "country": "China",
      "country_code": "CHN",
      "continent": "Asia",
      "label": "Guba, SC, China"
    },
    {
      "latitude": 12.79484,
      "longitude": 11.42234,
      "type": "locality",
      "name": "Guba",
      "number": null,
      "postal_code": null,
      "street": null,
      "confidence": 1,
      "region": "Yobe",
      "region_code": "YO",
      "county": "Bursari",
      "locality": "Guba",
      "administrative_area": null,
      "neighbourhood": null,
      "country": "Nigeria",
      "country_code": "NGA",
      "continent": "Africa",
      "label": "Guba, YO, Nigeria"
    },
    {
      "latitude": 11.51667,
      "longitude": 39.75,
      "type": "locality",
      "name": "Guba",
      "number": null,
      "postal_code": null,
      "street": null,
      "confidence": 1,
      "region": "Amhara",
      "region_code": "AM",
      "county": "Semen Wello",
      "locality": "Guba",
      "administrative_area": null,
      "neighbourhood": null,
      "country": "Ethiopia",
      "country_code": "ETH",
      "continent": "Africa",
      "label": "Guba, AM, Ethiopia"
    },
    {
      "latitude": 53.27336,
      "longitude": 66.37684,
      "type": "locality",
      "name": "Kuba",
      "number": null,
      "postal_code": null,
      "street": null,
      "confidence": 1,
      "region": "Soltustik Qazaqstan",
      "region_code": "NK",
      "county": "Timiryazevskiy",
      "locality": "Kuba",
      "administrative_area": null,
      "neighbourhood": null,
      "country": "Kazakhstan",
      "country_code": "KAZ",
      "continent": "Asia",
      "label": "Kuba, NK, Kazakhstan"
    },
    {
      "latitude": -20.82935,
      "longitude": 26.69517,
      "type": "locality",
      "name": "Guba",
      "number": null,
      "postal_code": null,
      "street": null,
      "confidence": 1,
      "region": "Central",
      "region_code": "CT",
      "county": null,
      "locality": "Guba",
      "administrative_area": null,
      "neighbourhood": null,
      "country": "Botswana",
      "country_code": "BWA",
      "continent": "Africa",
      "label": "Guba, CT, Botswana"
    },
    {
      "latitude": 28.23468,
      "longitude": 90.80467,
      "type": "locality",
      "name": "Quba",
      "number": null,
      "postal_code": null,
      "street": null,
      "confidence": 1,
      "region": "Tibet",
      "region_code": "XZ",
      "county": "Shannan",
      "locality": "Quba",
      "administrative_area": null,
      "neighbourhood": null,
      "country": "China",
      "country_code": "CHN",
      "continent": "Asia",
      "label": "Quba, XZ, China"
    },
    {
      "latitude": 30.3876,
      "longitude": 106.294,
      "type": "locality",
      "name": "Guba",
      "number": null,
      "postal_code": null,
      "street": null,
      "confidence": 1,
      "region": "Sichuan",
      "region_code": "SC",
      "county": "Guang\u0027an",
      "locality": "Guba",
      "administrative_area": null,
      "neighbourhood": null,
      "country": "China",
      "country_code": "CHN",
      "continent": "Asia",
      "label": "Guba, SC, China"
    }
  ]
}
